{
  "users": [
    {"no":1,"name":"새봄농장","store":"새봄농장","address":"경기 이천시 마장면 각평리 478-1","lat":37.2382419,"lng":127.374983},
    {"no":2,"name":"평창서울대","store":"평창서울대","address":"강원특별자치도 평창군 대화면 평창대로 1597-1","lat":37.5461468,"lng":128.435244},
    {"no":3,"name":"삼호농장","store":"삼호농장","address":"경기 여주시 가남읍 대신리길 202-14","lat":37.1838063,"lng":127.531869},
    {"no":4,"name":"은백축산","store":"은백축산","address":"전남 화순군 춘양면 개천로 202-1","lat":34.9272752,"lng":126.918205},
    {"no":5,"name":"범하농장","store":"범하농장","address":"경기 이천시 백사면 청백리로 474번길 260-59","lat":37.3088223,"lng":127.494766},
    {"no":6,"name":"천평농장","store":"천평농장","address":"충북 음성군 삼성면 청천로 61","lat":36.9905829,"lng":127.488063},
    {"no":7,"name":"세정농장","store":"세정농장","address":"경기 안성시 서운면 바우덕이로 289-50","lat":36.9608346,"lng":127.271578},
    {"no":8,"name":"한우리목장","store":"한우리목장","address":"경기 포천시 관인면 탄동리 752","lat":38.1552743,"lng":127.256187},
    {"no":9,"name":"승리농장","store":"승리농장","address":"경기 포천시 창수면 창동로 87-43","lat":38.025939,"lng":127.189772},
    {"no":10,"name":"한성농장","store":"한성농장","address":"경기 안성시 양성면 약산길 16","lat":37.1160066,"lng":127.255746},
    {"no":11,"name":"금송아지농장","store":"금송아지농장","address":"경기 안성시 고삼면 안성맞춤대로 1893","lat":37.0797322,"lng":127.258875},
    {"no":12,"name":"석청농장","store":"석청농장","address":"대전 유성구 금남구즉로 1001","lat":36.47461835,"lng":127.3840638},
    {"no":13,"name":"늘찬목장","store":"늘찬목장","address":"경기 여주시 능서면 구양1길 107","lat":37.30795247,"lng":127.5861718},
    {"no":14,"name":"한울목장","store":"한울목장","address":"전남 해남군 북일면 장전길 135","lat":34.4922015,"lng":126.678072},
    {"no":15,"name":"훈이농장","store":"훈이농장","address":"전남 해남군 화산면 서재길 167","lat":34.4594567,"lng":126.509282},
    {"no":16,"name":"새날농장","store":"새날농장","address":"전남 해남군 옥천면 해강로 252-27","lat":34.5684601,"lng":126.673418},
    {"no":17,"name":"해맑은농장","store":"해맑은농장","address":"전남 강진군 작천면 박산교동길 23-12","lat":34.695594,"lng":126.76538},
    {"no":18,"name":"장인목장","store":"장인목장","address":"강원특별자치도 원주시 부론면 견훤로 689-41","lat":37.264017,"lng":127.779519},
    {"no":19,"name":"미소농장","store":"미소농장","address":"경북 봉화군 법전면 척곡리 524-2","lat":36.907667,"lng":128.901715},
    {"no":20,"name":"상민농장","store":"상민농장","address":"경북 상주시 모동면 덕곡2길 8-100","lat":36.319173,"lng":127.963004},
    {"no":21,"name":"김희관 사장님 농장","store":"김희관 사장님 농장","address":"경북 경주시 현곡면 라원리 1362-3","lat":35.899047,"lng":129.213949},
    {"no":22,"name":"연암목장","store":"연암목장","address":"경북 경주시 안강읍 사방리 909-1","lat":35.9347117,"lng":129.216771},
    {"no":23,"name":"오야축산","store":"오야축산","address":"경북 경주시 천북면 오야리 425","lat":35.9335518,"lng":129.250541},
    {"no":24,"name":"IK농장","store":"IK농장","address":"경북 경주시 안강읍 노당리 1338-1","lat":36.0284414,"lng":129.218418},
    {"no":25,"name":"화랑목장","store":"화랑목장","address":"경북 경주시 안강읍 노당리 1505-6","lat":36.0338888,"lng":129.233668},
    {"no":26,"name":"대성농장","store":"대성농장","address":"경북 경주시 건천읍 모량리 92-5","lat":35.8272219,"lng":129.135953},
    {"no":27,"name":"마블농장","store":"마블농장","address":"경북 경주시 외동읍 석계리 199-2","lat":35.6816222,"lng":129.306726},
    {"no":28,"name":"나래농장","store":"나래농장","address":"전남 해남군 해남읍 용정리 70-2","lat":34.5568283,"lng":126.581177},
    {"no":29,"name":"소나무농장","store":"소나무농장","address":"전남 해남군 현산면 조산리 85-14","lat":34.4298433,"lng":126.608739},
    {"no":30,"name":"실로암3농장","store":"실로암3농장","address":"전남 해남군 북일면 장전길 94-31","lat":34.4911244,"lng":126.67984},
    {"no":31,"name":"청춘농장","store":"청춘농장","address":"전남 보성군 조성면 조성덕정길 4-3","lat":34.7843368,"lng":127.218968},
    {"no":32,"name":"남영농장","store":"남영농장","address":"충남 보령시 주산면 충서로 95-15","lat":36.1801613,"lng":126.619353},
    {"no":33,"name":"천곡농장","store":"천곡농장","address":"충남 서산시 해미면 천곡로 173","lat":36.7410885,"lng":126.5347},
    {"no":34,"name":"낙원농장","store":"낙원농장","address":"충남 서산시 운산면 원벌2길 60","lat":36.7709937,"lng":126.557581},
    {"no":35,"name":"심지농장","store":"심지농장","address":"충남 서산시 음암면 테미산성길 16","lat":36.8205556,"lng":126.496929},
    {"no":36,"name":"청파목장","store":"청파목장","address":"충남 서산시 팔봉면 문현로 174-13","lat":36.839435,"lng":126.372478},
    {"no":37,"name":"이혁농장","store":"이혁농장","address":"전남 담양군 무정면 봉안리 술지2길 26-36","lat":35.29257282,"lng":127.0354526},
    {"no":38,"name":"오성그린농장(2)","store":"오성그린농장(2)","address":"전북 정읍시 덕천면 도계리 금계1길 144-26","lat":35.64170322,"lng":126.8349728},
    {"no":39,"name":"밀키웨이목장","store":"밀키웨이목장","address":"경기 평택시 청북읍 어연리 청원로 530-64","lat":37.0459738,"lng":126.9868594},
    {"no":40,"name":"미래농장","store":"미래농장","address":"충남 아산시 인주면 문방리 아산만로 1457","lat":36.85851857,"lng":126.8622122},
    {"no":41,"name":"대림농장","store":"대림농장","address":"충남 아산시 둔포면 염작리 이화동길 252","lat":36.90640562,"lng":127.0788864},
    {"no":42,"name":"지분골농장","store":"지분골농장","address":"경남 의령군 대의면 행정리 모의로 500-24","lat":35.38547824,"lng":128.1650719},
    {"no":43,"name":"소망농장","store":"소망농장","address":"경북 경주시 내남면 비지리 석화길 30-1","lat":35.76668238,"lng":129.1194143},
    {"no":44,"name":"정선 임계생축장","store":"정선 임계생축장","address":"강원특별자치도 정선군 임계면 월루길 177-15","lat":37.475943,"lng":128.78183},
    {"no":45,"name":"가산농장","store":"가산농장","address":"충북 청주시 상당구 남일면 은행리 단재로 1127-14","lat":36.56712963,"lng":127.5475571},
    {"no":46,"name":"동진목장","store":"동진목장","address":"경북 경주시 시동 큰대일3길 19","lat":35.75511685,"lng":129.2757036},
    {"no":47,"name":"칠보목장","store":"칠보목장","address":"경북 영덕군 축산면 기암리 기암길 5-96","lat":36.47482083,"lng":129.3869439},
    {"no":48,"name":"한우개량사업소","store":"한우개량사업소","address":"충남 서산시 운산면 원벌리 해운로 691","lat":36.77077509,"lng":126.5634736},
    {"no":49,"name":"송산목장","store":"송산목장","address":"경기 여주시 삼교동 주내로 699-136","lat":37.24171564,"lng":127.6647655},
    {"no":50,"name":"유천한우","store":"유천한우","address":"충북 충주시 금가면 사암리 강수로 250-32","lat":37.03936335,"lng":127.9151268},
    {"no":51,"name":"농장태야","store":"농장태야","address":"경남 함안군 군북면 박곡리 방어산로 438-50","lat":35.27672048,"lng":128.297471},
    {"no":52,"name":"해오름농장","store":"해오름농장","address":"전남 장성군 황룡면 맥호리 맥호로 315-20","lat":35.30824706,"lng":126.7210234},
    {"no":53,"name":"연부농장","store":"연부농장","address":"전북 남원시 덕과면 용산리 배산길 39-129","lat":35.54782787,"lng":127.3412223},
    {"no":54,"name":"안성목장","store":"안성목장","address":"경기 안성시 공도읍 신두리 대신두길 42-25","lat":36.99127496,"lng":127.1962802},
    {"no":55,"name":"훈이네 농장","store":"훈이네 농장","address":"경남 김해시 한림면 용덕리 770-14","lat":35.2945978,"lng":128.828999}
  ]
}
